{"type":"FeatureCollection","features":[{"type":"Feature","geometry":{"type":"Point","coordinates":[-3.191113,55.943631]},"properties":{"location":"loaf.cheer.slave","reading":"26.22","battery":"11.969108","marker-color":"#00ff00","rgb-string":"#00ff00","marker-symbol":"lighthouse"}},{"type":"Feature","geometry":{"type":"Point","coordinates":[-3.18856,55.946057]},"properties":{"location":"boost.radar.stress","reading":"251.66","battery":"55.98812","marker-color":"#ff0000","rgb-string":"#ff0000","marker-symbol":"danger"}},{"type":"Feature","geometry":{"type":"Point","coordinates":[-3.186296,55.945761]},"properties":{"location":"posts.kicked.universally","reading":"243.26","battery":"93.33346","marker-color":"#ff0000","rgb-string":"#ff0000","marker-symbol":"danger"}},{"type":"Feature","geometry":{"type":"Point","coordinates":[-3.1875,55.943874]},"properties":{"location":"begins.spider.drips","reading":"76.26","battery":"90.65889","marker-color":"#80ff00","rgb-string":"#80ff00","marker-symbol":"lighthouse"}},{"type":"Feature","geometry":{"type":"Point","coordinates":[-3.190294,55.943712]},"properties":{"location":"sculpture.shot.melon","reading":"-1.0","battery":"2.202183","marker-color":"#000000","rgb-string":"#000000","marker-symbol":"cross"}},{"type":"Feature","geometry":{"type":"Point","coordinates":[-3.191161,55.943065]},"properties":{"location":"else.urban.museum","reading":"-1.0","battery":"7.218933","marker-color":"#000000","rgb-string":"#000000","marker-symbol":"cross"}},{"type":"Feature","geometry":{"type":"Point","coordinates":[-3.188319,55.945518]},"properties":{"location":"skills.less.herb","reading":"199.02","battery":"58.729427","marker-color":"#ff4000","rgb-string":"#ff4000","marker-symbol":"danger"}},{"type":"Feature","geometry":{"type":"Point","coordinates":[-3.187404,55.945949]},"properties":{"location":"slips.mass.baking","reading":"210.54","battery":"94.08844","marker-color":"#ff4000","rgb-string":"#ff4000","marker-symbol":"danger"}},{"type":"Feature","geometry":{"type":"Point","coordinates":[-3.187259,55.945653]},"properties":{"location":"diner.leaves.mutual","reading":"-1.0","battery":"6.2615395","marker-color":"#000000","rgb-string":"#000000","marker-symbol":"cross"}},{"type":"Feature","geometry":{"type":"Point","coordinates":[-3.186007,55.943901]},"properties":{"location":"teams.mild.played","reading":"147.69","battery":"50.82943","marker-color":"#ffc000","rgb-string":"#ffc000","marker-symbol":"danger"}},{"type":"Feature","geometry":{"type":"Point","coordinates":[-3.18697,55.942688]},"properties":{"location":"strut.river.surely","reading":"144.83","battery":"32.219147","marker-color":"#ffc000","rgb-string":"#ffc000","marker-symbol":"danger"}},{"type":"Feature","geometry":{"type":"Point","coordinates":[-3.187789,55.944386]},"properties":{"location":"thank.salsa.brain","reading":"62.67","battery":"30.624807","marker-color":"#40ff00","rgb-string":"#40ff00","marker-symbol":"lighthouse"}},{"type":"Feature","geometry":{"type":"Point","coordinates":[-3.190438,55.943982]},"properties":{"location":"pump.wheels.hulk","reading":"54.36","battery":"29.343288","marker-color":"#40ff00","rgb-string":"#40ff00","marker-symbol":"lighthouse"}},{"type":"Feature","geometry":{"type":"Point","coordinates":[-3.187885,55.944709]},"properties":{"location":"hurt.green.filer","reading":"86.73","battery":"24.235552","marker-color":"#80ff00","rgb-string":"#80ff00","marker-symbol":"lighthouse"}},{"type":"Feature","geometry":{"type":"Point","coordinates":[-3.18933,55.945653]},"properties":{"location":"museum.spicy.horns","reading":"245.36","battery":"19.705427","marker-color":"#ff0000","rgb-string":"#ff0000","marker-symbol":"danger"}},{"type":"Feature","geometry":{"type":"Point","coordinates":[-3.186729,55.945653]},"properties":{"location":"hidden.handle.softly","reading":"216.49","battery":"40.955822","marker-color":"#ff4000","rgb-string":"#ff4000","marker-symbol":"danger"}},{"type":"Feature","geometry":{"type":"Point","coordinates":[-3.186392,55.944656]},"properties":{"location":"rated.fired.crowds","reading":"213.97","battery":"89.556946","marker-color":"#ff4000","rgb-string":"#ff4000","marker-symbol":"danger"}},{"type":"Feature","geometry":{"type":"Point","coordinates":[-3.190197,55.943443]},"properties":{"location":"arts.dish.scarcely","reading":"44.4","battery":"18.764692","marker-color":"#40ff00","rgb-string":"#40ff00","marker-symbol":"lighthouse"}},{"type":"Feature","geometry":{"type":"Point","coordinates":[-3.189957,55.94603]},"properties":{"location":"love.behind.orchestra","reading":"199.45","battery":"16.386873","marker-color":"#ff4000","rgb-string":"#ff4000","marker-symbol":"danger"}},{"type":"Feature","geometry":{"type":"Point","coordinates":[-3.188945,55.943928]},"properties":{"location":"noted.friday.jams","reading":"23.33","battery":"72.16651","marker-color":"#00ff00","rgb-string":"#00ff00","marker-symbol":"lighthouse"}},{"type":"Feature","geometry":{"type":"Point","coordinates":[-3.186248,55.942796]},"properties":{"location":"under.retire.bump","reading":"-1.0","battery":"7.1465073","marker-color":"#000000","rgb-string":"#000000","marker-symbol":"cross"}},{"type":"Feature","geometry":{"type":"Point","coordinates":[-3.189619,55.94382]},"properties":{"location":"burn.spot.across","reading":"41.25","battery":"81.48931","marker-color":"#40ff00","rgb-string":"#40ff00","marker-symbol":"lighthouse"}},{"type":"Feature","geometry":{"type":"Point","coordinates":[-3.184465,55.944952]},"properties":{"location":"sports.topic.clocks","reading":"242.94","battery":"31.76133","marker-color":"#ff0000","rgb-string":"#ff0000","marker-symbol":"danger"}},{"type":"Feature","geometry":{"type":"Point","coordinates":[-3.184947,55.943443]},"properties":{"location":"sentences.sings.modern","reading":"173.37","battery":"27.934498","marker-color":"#ff8000","rgb-string":"#ff8000","marker-symbol":"danger"}},{"type":"Feature","geometry":{"type":"Point","coordinates":[-3.191016,55.945248]},"properties":{"location":"maple.limit.hotels","reading":"236.92","battery":"19.59656","marker-color":"#ff0000","rgb-string":"#ff0000","marker-symbol":"danger"}},{"type":"Feature","geometry":{"type":"Point","coordinates":[-3.190727,55.943092]},"properties":{"location":"relate.chill.vest","reading":"31.56","battery":"30.298567","marker-color":"#00ff00","rgb-string":"#00ff00","marker-symbol":"lighthouse"}},{"type":"Feature","geometry":{"type":"Point","coordinates":[-3.188704,55.943389]},"properties":{"location":"system.speak.guard","reading":"35.75","battery":"37.903328","marker-color":"#40ff00","rgb-string":"#40ff00","marker-symbol":"lighthouse"}},{"type":"Feature","geometry":{"type":"Point","coordinates":[-3.189764,55.942661]},"properties":{"location":"hooked.shine.third","reading":"38.43","battery":"42.713253","marker-color":"#40ff00","rgb-string":"#40ff00","marker-symbol":"lighthouse"}},{"type":"Feature","geometry":{"type":"Point","coordinates":[-3.191065,55.944709]},"properties":{"location":"estate.gave.votes","reading":"78.91","battery":"36.04503","marker-color":"#80ff00","rgb-string":"#80ff00","marker-symbol":"lighthouse"}},{"type":"Feature","geometry":{"type":"Point","coordinates":[-3.188463,55.945761]},"properties":{"location":"bend.tubes.chops","reading":"224.33","battery":"97.29059","marker-color":"#ff0000","rgb-string":"#ff0000","marker-symbol":"danger"}},{"type":"Feature","geometry":{"type":"Point","coordinates":[-3.18514,55.943685]},"properties":{"location":"hello.love.keys","reading":"208.62","battery":"30.492508","marker-color":"#ff4000","rgb-string":"#ff4000","marker-symbol":"danger"}},{"type":"Feature","geometry":{"type":"Point","coordinates":[-3.185332,55.946138]},"properties":{"location":"prime.rent.silk","reading":"196.39","battery":"15.530968","marker-color":"#ff4000","rgb-string":"#ff4000","marker-symbol":"danger"}},{"type":"Feature","geometry":{"type":"Point","coordinates":[-3.191883,55.946003]},"properties":{"location":"stone.undulation.poems","reading":"171.2","battery":"29.020262","marker-color":"#ff8000","rgb-string":"#ff8000","marker-symbol":"danger"}},{"type":"Feature","geometry":{"type":"Polygon","coordinates":[[[-3.1871805,55.9444875],[-3.1870423,55.9441939],[-3.1869766,55.9442036],[-3.1868975,55.9440482],[-3.1863302,55.9441323],[-3.1864053,55.9442967],[-3.1863034,55.944311],[-3.1863396,55.9443711],[-3.1864093,55.9443621],[-3.1864254,55.9443974],[-3.1862269,55.9444237],[-3.1863946,55.9445701],[-3.1864308,55.9445859],[-3.1864884,55.9445919],[-3.1871805,55.9444875]]]},"properties":{"name":"Appleton Tower","fill":"#ff0000"}},{"type":"Feature","geometry":{"type":"Polygon","coordinates":[[[-3.1866977,55.9433602],[-3.1865562,55.9430666],[-3.1863456,55.9430985],[-3.1864864,55.9433925],[-3.1866977,55.9433602]]]},"properties":{"name":"David Hume Tower","fill":"#ff0000"}},{"type":"Feature","geometry":{"type":"Polygon","coordinates":[[[-3.1897084,55.9428082],[-3.1894751,55.9423313],[-3.1882721,55.9425145],[-3.1885055,55.942993],[-3.1897084,55.9428082]]]},"properties":{"name":"Main Library","fill":"#ff0000"}},{"type":"Feature","geometry":{"type":"Polygon","coordinates":[[[-3.188079,55.945418],[-3.1876338,55.9445829],[-3.1869176,55.9447015],[-3.1870463,55.9449419],[-3.1869096,55.9449644],[-3.1867808,55.9448157],[-3.1865662,55.9448773],[-3.1871134,55.9455532],[-3.1872958,55.9455051],[-3.1878322,55.9454601],[-3.188079,55.945418]]]},"properties":{"name":"Informatics Forum","fill":"#ff0000"}},{"type":"Feature","geometry":{"type":"LineString","coordinates":[[-3.192473,55.946233],[-3.184319,55.946233],[-3.184319,55.942617],[-3.192473,55.942617],[-3.192473,55.946233]]},"properties":{}},{"type":"Feature","geometry":{"type":"LineString","coordinates":[[-3.188396,55.944425],[-3.1881362,55.944575],[-3.1878764,55.944725],[-3.1878243,55.9444296],[-3.1876743,55.9441698],[-3.1875243,55.9439099],[-3.1878062,55.9438073],[-3.1880881,55.9437047],[-3.1883479,55.9435547],[-3.1886298,55.9434521],[-3.1887798,55.9437119],[-3.1889727,55.9439417],[-3.1892681,55.9438897],[-3.1895635,55.9438376],[-3.189859,55.9437855],[-3.1901544,55.9437334],[-3.1902065,55.9434379],[-3.1903091,55.9437198],[-3.1904591,55.9439796],[-3.1907189,55.9438296],[-3.1909787,55.9436796],[-3.1908761,55.9433977],[-3.1907261,55.9431379],[-3.1910216,55.9430858],[-3.1907397,55.9429832],[-3.1904578,55.9428806],[-3.1901759,55.942778],[-3.1898939,55.9426754],[-3.1900439,55.9429352],[-3.1901939,55.943195],[-3.1903439,55.9434548],[-3.1904939,55.9437146],[-3.1906439,55.9439744],[-3.1907939,55.9442343],[-3.1909439,55.9444941],[-3.1910939,55.9447539],[-3.1910419,55.9450493],[-3.1909898,55.9453448],[-3.1912196,55.9455376],[-3.1914494,55.9457304],[-3.1917092,55.9458804],[-3.191939,55.9460733],[-3.191639,55.9460733],[-3.191339,55.9460733],[-3.191039,55.9460733],[-3.190739,55.9460733],[-3.190439,55.9460733],[-3.1901436,55.9460212],[-3.1898617,55.9459186],[-3.1896018,55.9457686],[-3.1893199,55.945666],[-3.1890601,55.945816],[-3.1888003,55.945966],[-3.1885184,55.9460686],[-3.1884663,55.9457731],[-3.1883163,55.9455133],[-3.1880565,55.9456633],[-3.1877746,55.9457659],[-3.1875148,55.9459159],[-3.187322,55.9456861],[-3.187022,55.9456861],[-3.1867265,55.945634],[-3.1864446,55.9457366],[-3.1864446,55.9454366],[-3.1864446,55.9451366],[-3.1863925,55.9448412],[-3.1862899,55.9445593],[-3.1861399,55.9442995],[-3.1860373,55.9440175],[-3.1857554,55.9439149],[-3.1854735,55.9438123],[-3.1851916,55.9437097],[-3.1849987,55.9434799],[-3.1852586,55.9433299],[-3.1855184,55.9431799],[-3.1857782,55.9430299],[-3.186038,55.9428799],[-3.1863199,55.9427773],[-3.1866153,55.9427252],[-3.1869108,55.9426731],[-3.186681,55.942866],[-3.1864511,55.9430588],[-3.1861692,55.9431614],[-3.1859764,55.9433912],[-3.1857836,55.943621],[-3.1855907,55.9438508],[-3.1853609,55.9440437],[-3.1851681,55.9442735],[-3.1849383,55.9444663],[-3.1847454,55.9446961],[-3.1845156,55.944889],[-3.1846656,55.9451488],[-3.1848156,55.9454086],[-3.1850085,55.9456384],[-3.1851585,55.9458982],[-3.1853513,55.946128],[-3.1856111,55.945978],[-3.1858709,55.945828],[-3.1861307,55.945678],[-3.1863905,55.945528],[-3.1866503,55.945378],[-3.1869503,55.945378],[-3.1871432,55.9456078],[-3.1874251,55.9455052],[-3.1877251,55.9455052],[-3.1880205,55.9454531],[-3.1882803,55.9453031],[-3.1883324,55.9450077],[-3.1883845,55.9447123],[-3.1883845,55.9444123]]},"properties":{}}]}